Land,Ländercode,Hauptstadt,Personenbezeichnung,Adjektiv,Währung,Continent,Colour,CapitalLatitude,CapitalLongitude
Afghanistan,AF,Kabul,Afghane/Afghanin,afghanisch,Afghani,Asia,6,34.516666666666666,69.18333299999999
Ägypten,EG,Kairo,Ägypter/Ägypterin,ägyptisch,ägyptisches Pfund,Africa,5,30.05,31.25
Ålandinseln,AX,Mariehamn,Åländer/Åländerin,åländisch,Euro,Europe,2,60.11666700000001,19.9
Albanien,AL,Tirana,Albaner/Albanerin,albanisch,Lek,Europe,2,41.31666666666667,19.816667000000002
Algerien,DZ,Algier,Algerier/Algerierin,algerisch,algerischer Dinar,Africa,5,36.75,3.05
Amerikanische Jungferninseln,VI,Charlotte Amalie,der Amerikanischen Jungferninseln,der Amerikanischen Jungferninseln,US-Dollar,North America,3,18.35,-64.93333299999999
Amerikanisch-Samoa,AS,Pago Pago,von Amerikanisch-Samoa,von Amerikanisch-Samoa,US-Dollar,Oceania,1,-14.266666666666667,-170.7
Andorra,AD,Andorra la Vella,Andorraner/Andorranerin,andorranisch,Euro,Europe,2,42.5,1.516667
Angola,AO,Luanda,Angolaner/Angolanerin,angolanisch,Kwanza,Africa,5,-8.833333333333334,13.216667000000001
Anguilla,AI,The Valley,Anguillaner/Anguillanerin,anguillanisch,ostkaribischer Dollar,North America,3,18.216666666666665,-63.05
Antarktis,AQ,—,—,antarktisch,—,Antarctica,7,-75.250973,-0.071389
Antigua und Barbuda,AG,St. John’s,Antiguaner/Antiguanerin,antiguanisch,ostkaribischer Dollar,North America,3,17.116666666666667,-61.85
Äquatorialguinea,GQ,Malabo,Äquatorialguineer/Äquatorialguineerin,äquatorialguineisch,CFA-Franc,Africa,5,3.75,8.783333
Argentinien,AR,Buenos Aires,Argentinier/Argentinierin,argentinisch,argentinischer Peso,South America,4,-34.583333333333336,-58.666667000000004
Armenien,AM,Eriwan,Armenier/Armenierin,armenisch,Dram,Europe,2,40.16666666666666,44.5
Aruba,AW,Oranjestad,Arubaner/Arubanerin,arubanisch,Aruba-Gulden,North America,3,12.516666666666667,-70.033333
Aserbaidschan,AZ,Baku,Aserbaidschaner/Aserbaidschanerin,aserbaidschanisch,Aserbaidschan-Manat,Europe,2,40.38333333333333,49.866667
Äthiopien,ET,Addis Abeba,Äthiopier/Äthiopierin,äthiopisch,Birr,Africa,5,9.033333333333333,38.7
Australien,AU,Canberra,Australier/Australierin,australisch,australischer Dollar,Oceania,1,-35.266666666666666,149.133333
Bahamas,BS,Nassau,Bahamaer/Bahamaerin,bahamaisch,Bahama-Dollar,North America,3,25.08333333333333,-77.35
Bahrain,BH,Manama,Bahrainer/Bahrainerin,bahrainisch,Bahrain-Dinar,Asia,6,26.23333333333333,50.566666999999995
Bangladesch,BD,Dhaka,Bangladescher/Bangladescherin,bangladeschisch,Taka,Asia,6,23.716666666666665,90.4
Barbados,BB,Bridgetown,Barbadier/Barbadierin,barbadisch,Barbados-Dollar,North America,3,13.1,-59.61666700000001
Belarus,BY,Minsk,Belarusse/Belarussin,belarussisch,belarussischer Rubel,Europe,2,53.9,27.566667
Belgien,BE,Brüssel,Belgier/Belgierin,belgisch,Euro,Europe,2,50.83333333333334,4.3333330000000005
Belize,BZ,Belmopan,Belizer/Belizerin,belizisch,Belize-Dollar,North America,3,17.25,-88.766667
Benin,BJ,Porto Novo,Beniner/Beninerin,beninisch,CFA-Franc,Africa,5,6.4833333333333325,2.6166669999999996
Bermuda,BM,Hamilton,Bermuder/Bermuderin,bermudisch,Bermuda-Dollar,North America,3,32.28333333333333,-64.783333
Bhutan,BT,Thimphu,Bhutaner/Bhutanerin,bhutanisch,Ngultrum/indische Rupie,Asia,6,27.466666666666665,89.633333
Bolivien,BO,Sucre,Bolivianer/Bolivianerin,bolivianisch,Boliviano,South America,4,-16.5,-68.15
Bosnien und Herzegowina,BA,Sarajewo,von Bosnien und Herzegowina,bosnisch- herzegowinisch,konvertierbare Mark,Europe,2,43.86666666666667,18.416667
Botsuana,BW,Gaborone,Botsuaner/Botsuanerin,botsuanisch,Pula,Africa,5,-24.63333333333333,25.9
Bouvetinsel,BV,—,—,der Bouvetinsel,—,Antarctica,7,-17.533333333333335,-149.566667
Brasilien,BR,Brasilia,Brasilianer/Brasilianerin,brasilianisch,Real,South America,4,-15.783333333333333,-47.916667
Britisches Territorium im Indischen Ozean,IO,—,—,des Britischen Territoriums im Indischen Ozean,US-Dollar,Asia,6,-7.3,72.4
Britische Jungferninseln,VG,Road Town,der Britischen Jungferninseln,der Britischen Jungferninseln,US-Dollar,North America,3,18.416666666666668,-64.616667
Brunei,BN,Bandar Seri Begawan,Bruneier/Bruneierin,bruneiisch,Brunei-Dollar,Asia,6,4.883333333333333,114.933333
Bulgarien,BG,Sofia,Bulgare/Bulgarin,bulgarisch,Lew,Europe,2,42.68333333333333,23.316667000000002
Burkina Faso,BF,Ouagadougou,Burkiner/Burkinerin,burkinisch,CFA-Franc,Africa,5,12.366666666666667,-1.516667
Burundi,BI,Gitega,Burundier/Burundierin,burundisch,Burundi-Franc,Africa,5,-3.3666666666666667,29.35
Cabo Verde,CV,Praia,von Cabo Verde,von Cabo Verde,Cabo-Verde-Escudo,Africa,5,14.916666666666664,-23.516667
Chile,CL,Santiago de Chile,Chilene/Chilenin,chilenisch,chilenischer Peso,South America,4,-33.45,-70.666667
China,CN,Peking,Chinese/Chinesin,chinesisch,Renminbi Yuan,Asia,6,39.91666666666666,116.38333300000001
Clipperton,CP,—,—,von Clipperton,—,Asia,6,39.016666666666666,125.75
Cookinseln,CK,Avarua,der Cookinseln,der Cookinseln,Neuseeland- Dollar,Oceania,1,-21.2,-159.76666699999998
Costa Rica,CR,San José,Costa-Ricaner/Costa-Ricanerin,costa-ricanisch,Costa-Rica-Colón,North America,3,9.933333333333334,-84.083333
Côte d’Ivoire,CI,Yamoussoukro,Ivorer/Ivorerin,ivorisch,CFA-Franc,Africa,5,6.816666666666666,-5.266667
Curaçao,CW,Willemstad,von Curaçao,von Curaçao,Niederländische-Antillen-Gulden,North America,3,12.1,-68.916667
Dänemark,DK,Kopenhagen,Däne/Dänin,dänisch,dänische Krone,Europe,2,55.66666666666666,12.583333
Deutschland,DE,Berlin,Deutscher/Deutsche,deutsch,Euro,Europe,2,52.51666666666666,13.4
Dominica,DM,Roseau,Dominicaner/Dominicanerin,dominicanisch,ostkaribischer Dollar,North America,3,15.3,-61.4
Dominikanische Republik,DO,Santo Domingo,Dominikaner/Dominikanerin,dominikanisch,dominikanischer Peso,North America,3,18.466666666666665,-69.9
Dschibuti,DJ,Dschibuti,Dschibutier/Dschibutierin,dschibutisch,Dschibuti-Franc,Africa,5,11.583333333333336,43.15
Ecuador,EC,Quito,Ecuadorianer/Ecuadorianerin,ecuadorianisch,US-Dollar,South America,4,-0.21666666666666667,-78.5
El Salvador,SV,San Salvador,Salvadorianer/Salvadorianerin,salvadorianisch,El-Salvador-Colón/US-Dollar,North America,3,13.7,-89.2
Eritrea,ER,Asmara,Eritreer/Eritreerin,eritreisch,Nakfa,Africa,5,15.333333333333336,38.933333000000005
Estland,EE,Tallinn,Este/Estin,estnisch,Euro,Europe,2,59.43333333333333,24.716667
Eswatini,SZ,Mbabane,Swasi,swasiländisch,Lilangeni,Africa,5,-26.316666666666666,31.133333
Falklandinseln,FK,Stanley,Falkländer/Falkländerin,falkländisch,Falkland-Pfund,South America,4,-51.7,-57.85
Färöer,FO,Thorshavn,Färinger/Färingerin,färöisch,dänische Krone,Europe,2,62.0,-6.766667
Fidschi,FJ,Suva,Fidschianer/Fidschianerin,fidschianisch,Fidschi-Dollar,Oceania,1,-18.133333333333333,178.416667
Finnland,FI,Helsinki,Finne/Finnin,finnisch,Euro,Europe,2,60.16666666666666,24.933332999999998
Frankreich,FR,Paris,Franzose/Französin,französisch,Euro,Europe,2,48.86666666666667,2.333333
Französisch-Polynesien,PF,Papeete,von Französisch-Polynesien,von Französisch-Polynesien,CFP-Franc,Oceania,1,-17.533333333333335,-149.566667
Gabun,GA,Libreville,Gabuner/Gabunerin,gabunisch,CFA-Franc,Africa,5,0.38333333333333336,9.45
Gambia,GM,Banjul,Gambier/Gambierin,gambisch,Dalasi,Africa,5,13.45,-16.566667000000002
Georgien,GE,Tiflis,Georgier/Georgierin,georgisch,Lari,Europe,2,41.68333333333333,44.833333
Ghana,GH,Accra,Ghanaer/Ghanaerin,ghanaisch,Ghana Cedi,Africa,5,5.55,-0.216667
Gibraltar,GI,Gibraltar,Gibraltarer/Gibraltarerin,gibraltarisch,Gibraltar-Pfund,Europe,2,36.13333333333333,-5.35
Grenada,GD,St. George’s,Grenader/Grenaderin,grenadisch,ostkaribischer Dollar,North America,3,12.05,-61.75
Griechenland,EL,Athen,Grieche/Griechin,griechisch,Euro,Europe,2,41.31666666666667,19.816667000000002
Grönland,GL,Nuuk,Grönländer/Grönländerin,grönländisch,dänische Krone,North America,3,64.18333333333334,-51.75
Guadeloupe,GP,Basse-Terre,von Guadeloupe,von Guadeloupe,Euro,North America,3,39.016666666666666,125.75
Guam,GU,Hagåtña,Guamer/Guamerin,guamisch,US-Dollar,Oceania,1,13.466666666666667,144.73333300000002
Guatemala,GT,Guatemala-Stadt,Guatemalteke/Guatemaltekin,guatemaltekisch,Quetzal,North America,3,14.616666666666667,-90.516667
Guernsey,GG,Saint Peter Port,von Guernsey,von Guernsey,Guernsey-Pfund/Pfund Sterling,Europe,2,49.45,-2.5333330000000003
Guinea,GN,Conakry,Guineer/Guineerin,guineisch,Guinea-Franc,Africa,5,9.5,-13.7
Guinea-Bissau,GW,Bissau,Guinea-Bissauer/Guinea-Bissauerin,guinea-bissauisch,CFA-Franc,Africa,5,11.85,-15.583332999999998
Guyana,GY,Georgetown,Guyaner/Guyanerin,guyanisch,Guyana-Dollar,South America,4,6.8,-58.15
Haiti,HT,Port-au-Prince,Haitianer/Haitianerin,haitianisch,Gourde/US-Dollar,North America,3,18.53333333333333,-72.333333
Heiliger Stuhl/ Vatikanstadt,VA,—/Vatikanstadt,des Heiligen Stuhls/ von Vatikanstadt,des Heiligen Stuhls/  vatikanisch,Euro,Europe,2,41.9,12.45
Honduras,HN,Tegucigalpa,Honduraner/Honduranerin,honduranisch,Lempira,North America,3,14.1,-87.216667
Indien,IN,New Delhi,Inder/Inderin,indisch,indische Rupie,Asia,6,28.6,77.2
Indonesien,ID,Jakarta,Indonesier/Indonesierin,indonesisch,Rupiah,Asia,6,-6.166666666666668,106.816667
Insel Man,IM,Douglas,der Insel Man,Manx,Isle-of-Man-Pfund/Pfund Sterling,Europe,2,54.15,-4.483333
Irak,IQ,Bagdad,Iraker/Irakerin,irakisch,Irak-Dinar,Asia,6,33.333333333333336,44.4
Iran,IR,Teheran,Iraner/Iranerin,iranisch,iranischer Rial,Asia,6,35.7,51.416667
Irland,IE,Dublin,Ire/Irin,irisch,Euro,Europe,2,53.31666666666667,-6.233333
Island,IS,Reykjavik,Isländer/Isländerin,isländisch,isländische Krone,Europe,2,64.15,-21.95
Israel,IL,Jerusalem,Israeli,israelisch,Schekel,Asia,6,31.766666666666666,35.233333
Italien,IT,Rom,Italiener/Italienerin,italienisch,Euro,Europe,2,41.9,12.483333
Jamaika,JM,Kingston,Jamaikaner/Jamaikanerin,jamaikanisch,Jamaika-Dollar,North America,3,18.0,-76.8
Japan,JP,Tokyo,Japaner/Japanerin,japanisch,Yen,Asia,6,35.68333333333333,139.75
Jemen,YE,Sanaa,Jemenit/Jemenitin,jemenitisch,Jemen-Rial,Asia,6,15.35,44.2
Jersey,JE,Saint Hélier,von Jersey,von Jersey,Jersey-Pfund/Pfund Sterling,Europe,2,49.18333333333333,-2.1
Jordanien,JO,Amman,Jordanier/Jordanierin,jordanisch,Jordan-Dinar,Asia,6,31.95,35.933333000000005
Kaimaninseln,KY,George Town,der Kaimaninseln,der Kaimaninseln,Kaiman-Dollar,North America,3,19.3,-81.383333
Kambodscha,KH,Phnom Penh,Kambodschaner/Kambodschanerin,kambodschanisch,Riel,Asia,6,11.55,104.91666699999999
Kamerun,CM,Jaunde,Kameruner/Kamerunerin,kamerunisch,CFA-Franc,Africa,5,3.8666666666666663,11.516667
Kanada,CA,Ottawa,Kanadier/Kanadierin,kanadisch,kanadischer Dollar,North America,3,45.41666666666666,-75.7
Kasachstan,KZ,Nur-Sultan,Kasache/Kasachin,kasachisch,Tenge,Asia,6,51.16666666666666,71.416667
Katar,QA,Doha,Katarer/Katarerin,katarisch,Katar-Riyal,Asia,6,25.28333333333333,51.533333
Kenia,KE,Nairobi,Kenianer/Kenianerin,kenianisch,Kenia-Schilling,Africa,5,-1.2833333333333332,36.816666999999995
Kirgisistan,KG,Bischkek,Kirgise/Kirgisin,kirgisisch,Som,Asia,6,42.86666666666667,74.6
Kiribati,KI,Tarawa,Kiribatier/Kiribatierin,kiribatisch,australischer Dollar,Oceania,1,-0.8833333333333333,169.533333
Kokosinseln,CC,West Island,der Kokosinseln,der Kokosinseln,australischer Dollar,Asia,6,-12.166666666666664,96.833333
Kolumbien,CO,Bogotá,Kolumbianer/Kolumbianerin,kolumbianisch,kolumbianischer Peso,South America,4,4.6,-74.083333
Komoren,KM,Moroni,Komorer/Komorerin,komorisch,Komoren-Franc,Africa,5,-11.7,43.233333
Demokratische Republik Kongo,CD,Kinshasa,der Demokratischen Republik Kongo,der Demokratischen Republik Kongo,Kongo-Franc,Africa,5,-4.316666666666666,15.3
Kongo,CG,Brazzaville,Kongolese/Kongolesin,kongolesisch,CFA-Franc,Africa,5,-4.25,15.283332999999999
Kroatien,HR,Zagreb,Kroate/Kroatin,kroatisch,Kuna,Europe,2,45.8,16.0
Kuba,CU,Havanna,Kubaner/Kubanerin,kubanisch,kubanischer Peso/konvertibler Peso,North America,3,23.11666666666667,-82.35
Kuwait,KW,Kuwait,Kuwaiter/Kuwaiterin,kuwaitisch,Kuwait-Dinar,Asia,6,29.36666666666667,47.966667
Laos,LA,Vientiane,Laote/Laotin,laotisch,Kip,Asia,6,17.966666666666665,102.6
Lesotho,LS,Maseru,Lesother/Lesotherin,lesothisch,Loti/Rand,Africa,5,-29.316666666666666,27.483333000000002
Lettland,LV,Riga,Lette/Lettin,lettisch,Euro,Europe,2,56.95,24.1
Libanon,LB,Beirut,Libanese/Libanesin,libanesisch,libanesisches Pfund,Asia,6,33.86666666666667,35.5
Liberia,LR,Monrovia,Liberianer/Liberianerin,liberianisch,liberianischer Dollar,Africa,5,6.3,-10.8
Libyen,LY,Tripolis,Libyer/Libyerin,libysch,libyscher Dinar,Africa,5,32.88333333333333,13.166667000000002
Liechtenstein,LI,Vaduz,Liechtensteiner/Liechtensteinerin,liechtensteinisch,Schweizer Franken,Europe,2,47.13333333333333,9.516667
Litauen,LT,Vilnius,Litauer/Litauerin,litauisch,Euro,Europe,2,54.68333333333333,25.316667000000002
Luxemburg,LU,Luxemburg,Luxemburger/Luxemburgerin,luxemburgisch,Euro,Europe,2,49.6,6.116667
Madagaskar,MG,Antananarivo,Madagasse/Madagassin,madagassisch,Ariary,Africa,5,-18.916666666666668,47.516667
Malawi,MW,Lilongwe,Malawier/Malawierin,malawisch,Malawi-Kwacha,Africa,5,-13.966666666666667,33.783333
Malaysia,MY,Kuala Lumpur,Malaysier/Malaysierin,malaysisch,Ringgit,Asia,6,3.1666666666666665,101.7
Malediven,MV,Male,Malediver/Malediverin,maledivisch,Rufiyaa,Asia,6,4.166666666666667,73.5
Mali,ML,Bamako,Malier/Malierin,malisch,CFA-Franc,Africa,5,12.65,-8.0
Malta,MT,Valletta,Malteser/Malteserin,maltesisch,Euro,Europe,2,35.88333333333333,14.5
Marokko,MA,Rabat,Marokkaner/Marokkanerin,marokkanisch,marokkanischer Dirham,Africa,5,34.016666666666666,-6.816667
Marshallinseln,MH,Majuro,Marshaller/Marshallerin,marshallisch,US-Dollar,Oceania,1,7.1,171.383333
Martinique,MQ,Fort-de-France,von Martinique,von Martinique,Euro,North America,3,42.0,21.433332999999998
Mauretanien,MR,Nouakchott,Mauretanier/Mauretanierin,mauretanisch,Ouguiya,Africa,5,18.066666666666666,-15.966667000000001
Mauritius,MU,Port Louis,Mauritier/Mauritierin,mauritisch,Mauritius-Rupie,Africa,5,-20.15,57.483332999999995
Mexiko,MX,Mexiko-Stadt,Mexikaner/Mexikanerin,mexikanisch,mexikanischer Peso,North America,3,19.433333333333334,-99.133333
Mikronesien,FM,Palikir,Mikronesier/Mikronesierin,mikronesisch,US-Dollar,Oceania,1,6.916666666666668,158.15
Moldau,MD,Chisinau,Moldauer/Moldauerin,moldauisch,Moldau-Leu,Europe,2,47.0,28.85
Monaco,MC,Monaco,Monegasse/Monegassin,monegassisch,Euro,Europe,2,43.73333333333333,7.4166669999999995
Mongolei,MN,Ulan-Bator,Mongole/Mongolin,mongolisch,Tugrik,Asia,6,47.91666666666666,106.91666699999999
Montenegro,ME,Podgorica,Montenegriner/Montenegrinerin,montenegrinisch,Euro,Europe,2,42.43333333333333,19.266667
Montserrat,MS,Plymouth,von Montserrat,von Montserrat,ostkaribischer Dollar,North America,3,16.7,-62.216667
Mosambik,MZ,Maputo,Mosambikaner/Mosambikanerin,mosambikanisch,Metical,Africa,5,-25.95,32.583333
Myanmar/Birma,MM,Naypyidaw,von Myanmar/Birma,von Myanmar/Birma,Kyat,Asia,6,16.8,96.15
Namibia,NA,Windhuk,Namibier/Namibierin,namibisch,Namibia-Dollar/Rand,Africa,5,-22.566666666666666,17.083333
Nauru,NR,Yaren,Nauruer/Nauruerin,nauruisch,australischer Dollar,Oceania,1,-0.5477,166.920867
Nepal,NP,Kathmandu,Nepalese/Nepalesin,nepalesisch,nepalesische Rupie,Asia,6,27.716666666666665,85.31666700000001
Neukaledonien,NC,Nouméa,Neukaledonier/Neukaledonierin,neukaledonisch,CFP-Franc,Oceania,1,-22.266666666666666,166.45
Neuseeland,NZ,Wellington,Neuseeländer/Neuseeländerin,neuseeländisch,Neuseeland- Dollar,Oceania,1,-41.3,174.783333
Nicaragua,NI,Managua,Nicaraguaner/Nicaraguanerin,nicaraguanisch,Córdoba Oro,North America,3,12.133333333333333,-86.25
Niederlande,NL,Amsterdam,Niederländer/Niederländerin,niederländisch,Euro,Europe,2,52.35,4.9166669999999995
Niger,NE,Niamey,Nigrer/Nigrerin,nigrisch,CFA-Franc,Africa,5,13.516666666666667,2.1166669999999996
Nigeria,NG,Abuja,Nigerianer/Nigerianerin,nigerianisch,Naira,Africa,5,9.083333333333334,7.533333
Niue,NU,Alofi,Niueaner/Niueanerin,niueanisch,Neuseeland- Dollar,Oceania,1,-19.016666666666666,-169.916667
Nordkorea,KP,Pjöngjang,der Demokratischen Volksrepublik Korea,der Demokratischen Volksrepublik Korea,nordkoreanischer Won,Asia,6,39.016666666666666,125.75
Nördliche Marianen,MP,Saipan,der Nördlichen Marianen,der Nördlichen Marianen,US-Dollar,Oceania,1,15.2,145.75
Nordmazedonien,MK,Skopje,Mazedonier/Bürger der Republik Nordmazedonien,der Republik Nordmazedonien/ Nordmazedoniens,Denar,Europe,2,42.0,21.433332999999998
Norfolkinsel,NF,Kingston,der Norfolkinsel,der Norfolkinsel,australischer Dollar,Oceania,1,-29.05,167.966667
Norwegen,NO,Oslo,Norweger/Norwegerin,norwegisch,norwegische Krone,Europe,2,59.91666666666666,10.75
Oman,OM,Maskat,Omaner/Omanerin,omanisch,Omani-Rial,Asia,6,23.61666666666667,58.583332999999996
Österreich,AT,Wien,Österreicher/Österreicherin,österreichisch,Euro,Europe,2,48.2,16.366667
Pakistan,PK,Islamabad,Pakistaner/Pakistanerin,pakistanisch,pakistanische Rupie,Asia,6,33.68333333333333,73.05
Palau,PW,Melekeok,Palauer/Palauerin,palauisch,US-Dollar,Oceania,1,7.4833333333333325,134.633333
Panama,PA,Panama,Panamaer/Panamaerin,panamaisch,Balboa/US-Dollar,North America,3,8.966666666666667,-79.533333
Papua-Neuguinea,PG,Port Moresby,Papua-Neuguineer/Papua-Neuguineerin,papua-neuguineisch,Kina,Oceania,1,-9.45,147.183333
Paraguay,PY,Asunción,Paraguayer/Paraguayerin,paraguayisch,Guarani,South America,4,-25.266666666666666,-57.666667000000004
Peru,PE,Lima,Peruaner/Peruanerin,peruanisch,Sol,South America,4,-12.05,-77.05
Philippinen,PH,Manila,Philippiner/Philippinerin,philippinisch,philippinischer Peso,Asia,6,14.6,120.96666699999999
Pitcairninseln,PN,Adamstown,der Pitcairninseln,der Pitcairninseln,Neuseeland-Dollar,Oceania,1,-25.066666666666666,-130.083333
Polen,PL,Warschau,Pole/Polin,polnisch,Zloty,Europe,2,52.25,21.0
Portugal,PT,Lissabon,Portugiese/Portugiesin,portugiesisch,Euro,Europe,2,38.71666666666667,-9.133333
Puerto Rico,PR,San Juan,Puerto-Ricaner/Puerto-Ricanerin,puerto-ricanisch,US-Dollar,North America,3,18.466666666666665,-66.116667
Ruanda,RW,Kigali,Ruander/Ruanderin,ruandisch,Ruanda-Franc,Africa,5,-1.95,30.05
Rumänien,RO,Bukarest,Rumäne/Rumänin,rumänisch,rumänischer Leu,Europe,2,44.43333333333333,26.1
Russland,RU,Moskau,der Russischen Föderation,russisch,russischer Rubel,Europe,2,55.75,37.6
Salomonen,SB,Honiara,Salomoner/Salomonerin,salomonisch,Salomonen-Dollar,Oceania,1,-9.433333333333334,159.95
Sambia,ZM,Lusaka,Sambier/Sambierin,sambisch,sambischer Kwacha,Africa,5,-15.416666666666664,28.283333000000002
Samoa,WS,Apia,Samoaner/Samoanerin,samoanisch,Tala,Oceania,1,-13.816666666666665,-171.76666699999998
San Marino,SM,San Marino,San-Marinese/San-Marinesin,san-marinesisch,Euro,Europe,2,43.93333333333333,12.416667
São Tomé und Príncipe,ST,São Tomé,São-Toméer/São-Toméerin,são-toméisch,Dobra,Africa,5,0.3333333333333333,6.733333
Saudi-Arabien,SA,Riad,Saudi-Araber/Saudi-Araberin,saudi-arabisch,Saudi-Riyal,Asia,6,24.65,46.7
Schweden,SE,Stockholm,Schwede/Schwedin,schwedisch,schwedische Krone,Europe,2,59.33333333333334,18.05
Schweiz,CH,Bern,Schweizer/Schweizerin,schweizerisch,Schweizer Franken,Europe,2,46.91666666666666,7.466667
Senegal,SN,Dakar,Senegalese/Senegalesin,senegalesisch,CFA-Franc,Africa,5,14.733333333333333,-17.633333
Serbien,RS,Belgrad,Serbe/Serbin,serbisch,serbischer Dinar,Europe,2,44.83333333333334,20.5
Seychellen,SC,Victoria,Seycheller/Seychellerin,seychellisch,Seychellen-Rupie,Africa,5,-4.616666666666667,55.45
Sierra Leone,SL,Freetown,Sierra-Leoner/Sierra-Leonerin,sierra-leonisch,Leone,Africa,5,8.483333333333333,-13.233332999999998
Simbabwe,ZW,Harare,Simbabwer/Simbabwerin,simbabwisch,Simbabwe-Dollar,Africa,5,-17.816666666666666,31.033333000000002
Singapur,SG,Singapur,Singapurer/Singapurerin,singapurisch,Singapur-Dollar,Asia,6,1.2833333333333332,103.85
Slowakei,SK,Bratislava,Slowake/Slowakin,slowakisch,Euro,Europe,2,48.15,17.116667
Slowenien,SI,Ljubljana,Slowene/Slowenin,slowenisch,Euro,Europe,2,46.05,14.516667000000002
Somalia,SO,Mogadischu,Somalier/Somalierin,somalisch,Somalia-Schilling,Africa,5,2.066666666666667,45.333333
Spanien,ES,Madrid,Spanier/Spanierin,spanisch,Euro,Europe,2,40.4,-3.683333
Sri Lanka,LK,Sri Jayewardenepura – Kotte,Sri-Lanker/Sri-Lankerin,sri-lankisch,Sri-Lanka-Rupie,Asia,6,6.916666666666668,79.833333
St. Barthélemy,BL,Gustavia,von St. Barthélemy,von St. Barthélemy,Euro,North America,3,17.883333333333333,-62.85
"St. Helena, Ascension und Tristan da Cunha",SH,Jamestown,"von St. Helena, Ascension und Tristan da Cunha","von St. Helena, Ascension und Tristan da Cunha",St.-Helena-Pfund/Pfund Sterling,Africa,5,-15.933333333333335,-5.716667
St. Kitts und Nevis,KN,Basseterre,von St. Kitts und Nevis,von St. Kitts und Nevis,ostkaribischer Dollar,North America,3,17.3,-62.716667
St. Lucia,LC,Castries,Lucianer/Lucianerin,lucianisch,ostkaribischer Dollar,North America,3,14.0,-61.0
St. Martin,MF,Marigot,von St. Martin,von St. Martin,Euro,North America,3,18.0731,-63.0822
Sint Maarten,SX,Philipsburg,von Sint Maarten,von Sint Maarten,Niederländische-Antillen-Gulden,North America,3,18.016666666666666,-63.033333
St. Pierre und Miquelon,PM,Saint-Pierre,von St. Pierre und Miquelon,von St. Pierre und Miquelon,Euro,North America,3,46.76666666666666,-56.183333
St. Vincent und Grenadinen,VC,Kingstown,Vincenter/Vincenterin,vincentisch,ostkaribischer Dollar,North America,3,13.133333333333333,-61.216667
Südafrika,ZA,Pretoria,Südafrikaner/Südafrikanerin,südafrikanisch,Rand,Africa,5,-25.7,28.216666999999998
Sudan,SD,Khartum,Sudanese/Sudanesin,sudanesisch,sudanesisches Pfund,Africa,5,15.6,32.533333
Südgeorgien und Südliche Sandwichinseln,GS,King Edward Point,—,Südgeorgiens und der Südlichen Sandwichinseln,—,Antarctica,7,-54.283333,-36.5
Südkorea,KR,Seoul,der Republik Korea,der Republik Korea,südkoreanischer Won,Asia,6,37.55,126.983333
Südsudan,SS,Dschuba,Südsudanese/Südsudanesin,südsudanesisch,südsudanesisches Pfund,Africa,5,4.85,31.616667
Suriname,SR,Paramaribo,Surinamer/Surinamerin,surinamisch,Suriname-Dollar,South America,4,5.833333333333332,-55.166667000000004
Svalbard und Jan Mayen,SJ,"Longyearbyen , Olonkinbyen","von Svalbard, von Jan Mayen","von Svalbard, von Jan Mayen",norwegische Krone,Europe,2,78.21666666666667,15.633332999999999
Syrien,SY,Damaskus,Syrer/Syrerin,syrisch,syrisches Pfund,Asia,6,33.5,36.3
Tadschikistan,TJ,Duschanbe,Tadschike/Tadschikin,tadschikisch,Somoni,Asia,6,38.55,68.766667
Taiwan,TW,Taipeh,Taiwaner/Taiwanerin,taiwanisch,neuer Taiwan-Dollar,Asia,6,25.03333333333333,121.516667
Tansania,TZ,Dodoma,Tansanier/Tansanierin,tansanisch,Tansania-Schilling,Africa,5,-6.8,39.283333
Thailand,TH,Bangkok,Thailänder/Thailänderin,thailändisch,Baht,Asia,6,13.75,100.516667
Timor-Leste,TL,Dili,Timorer/Timorerin,timorisch,US-Dollar,Asia,6,-8.583333333333334,125.6
Togo,TG,Lomé,Togoer/Togoerin,togoisch,CFA-Franc,Africa,5,6.116666666666666,1.216667
Tonga,TO,Nuku’alofa,Tongaer/Tongaerin,tongaisch,Pa’anga,Oceania,1,-21.133333333333333,-175.2
Trinidad und Tobago,TT,Port-of-Spain,von Trinidad und Tobago,von Trinidad und Tobago,Trinidad-und-Tobago-Dollar,North America,3,10.65,-61.516667000000005
Tschad,TD,N’Djamena,Tschader/Tschaderin,tschadisch,CFA-Franc,Africa,5,12.1,15.033332999999999
Tschechien,CZ,Prag,Tscheche/Tschechin,tschechisch,tschechische Krone,Europe,2,50.08333333333334,14.466667000000001
Tunesien,TN,Tunis,Tunesier/Tunesierin,tunesisch,tunesischer Dinar,Africa,5,36.8,10.183333
Türkei,TR,Ankara,Türke/Türkin,türkisch,türkische Lira,Asia,6,39.93333333333333,32.866667
Turkmenistan,TM,Aschgabat,Turkmene/Turkmenin,turkmenisch,Turkmenistan-Manat,Asia,6,37.95,58.38333299999999
Turks- und Caicosinseln,TC,Cockburn Town,der Turks- und Caicosinseln,der Turks- und Caicosinseln,US-Dollar,North America,3,21.466666666666665,-71.133333
Tuvalu,TV,Funafuti,Tuvaluer/Tuvaluerin,tuvaluisch,australischer Dollar,Oceania,1,-8.516666666666667,179.216667
Uganda,UG,Kampala,Ugander/Uganderin,ugandisch,Uganda-Schilling,Africa,5,0.31666666666666665,32.55
Ukraine,UA,Kiew,Ukrainer/Ukrainerin,ukrainisch,Griwna,Europe,2,50.43333333333333,30.516666999999998
Ungarn,HU,Budapest,Ungar/Ungarin,ungarisch,Forint,Europe,2,47.5,19.083333
Uruguay,UY,Montevideo,Uruguayer/Uruguayerin,uruguayisch,uruguayischer Peso,South America,4,-34.85,-56.166667000000004
Usbekistan,UZ,Taschkent,Usbeke/Usbekin,usbekisch,Sum,Asia,6,41.31666666666667,69.25
Vanuatu,VU,Port Vila,Vanuatuer/Vanuatuerin,vanuatuisch,Vatu,Oceania,1,-17.733333333333334,168.316667
Vatikanstadt,VA,Vatikanstadt,der Vatikanstadt des Staates Vatikanstadt,vatikanisch,Euro,Europe,2,41.9,12.45
Venezuela,VE,Caracas,Venezolaner/Venezolanerin,venezolanisch,Bolívar Soberano,South America,4,10.483333333333333,-66.866667
Vereinigte Arabische Emirate,AE,Abu Dhabi,der Vereinigten Arabischen Emirate,der Vereinigten Arabischen Emirate,VAE-Dirham,Asia,6,24.466666666666665,54.36666700000001
Vereinigte Staaten,US,Washington,Amerikaner/Amerikanerin,amerikanisch,US-Dollar,North America,3,38.883333,-77.0
Vereinigtes Königreich,UK,London,Brite/Britin,britisch,Pfund Sterling,Europe,2,51.5,-0.083333
Vietnam,VN,Hanoi,Vietnamese/Vietnamesin,vietnamesisch,Dong,Asia,6,21.03333333333333,105.85
Wallis und Futuna,WF,Mata-Utu,von Wallis und Futuna,von Wallis und Futuna,CFP-Franc,Oceania,1,-13.95,-171.933333
Weihnachtsinsel,CX,Flying Fish Cove,der Weihnachtsinsel,der Weihnachtsinsel,australischer Dollar,Asia,6,-10.416666666666666,105.71666699999999
Westsahara,EH,Laayoune,Saharaui,saharauisch,marokkanischer Dirham,Africa,5,27.153610999999998,-13.203332999999999
Zentralafrikanische Republik,CF,Bangui,Zentralafrikaner/Zentralafrikanerin,zentralafrikanisch,CFA-Franc,Africa,5,4.366666666666666,18.583333
Zypern,CY,Nikosia,Zyprer/Zyprerin,zyprisch,Euro,Europe,2,35.166666666666664,33.366667
